City_ID,City,Lat,Lng,Max Temp,Humidity,Cloudiness,Wind Speed,Country,Date
0,port mathurin,-19.6833,63.4167,26.21,76,22,4.76,MU,1702176286
1,talnakh,69.4865,88.3972,-34.38,99,100,3.45,RU,1702176316
2,san antonio de pale,-1.4014,5.6325,27.16,80,51,5.23,GQ,1702176341
3,ust-nera,64.5667,143.2,-16.26,99,100,1.88,RU,1702176319
4,new norfolk,-42.7826,147.0587,21.51,24,8,1.55,AU,1702176402
5,constitucion,-35.3333,-72.4167,16.05,56,0,4.95,CL,1702176560
6,zouerate,22.7187,-12.4521,19.66,25,100,4.34,MR,1702176181
7,petropavlovsk-kamchatsky,53.0452,158.6483,0.25,95,100,6.71,RU,1702176314
8,dedougou,12.4667,-3.4667,21.52,16,49,3.28,BF,1702176560
9,bethel,41.3712,-73.414,9.17,87,20,0.0,US,1702176291
10,waitangi,-43.9535,-176.5597,12.68,93,100,0.89,NZ,1702176289
11,invercargill,-46.4,168.35,13.22,55,25,7.36,NZ,1702176294
12,adamstown,-25.066,-130.1015,21.56,79,100,2.77,PN,1702176560
13,altamira,-3.2033,-52.2064,25.38,79,93,0.84,BR,1702176397
14,puerto natales,-51.7236,-72.4875,8.16,93,100,1.41,CL,1702176297
15,grytviken,-54.2811,-36.5092,3.99,87,29,5.25,GS,1702176560
16,bel ombre,-4.6167,55.4167,27.91,74,75,4.63,SC,1702176561
17,isafjordur,66.0755,-23.124,-2.67,87,77,2.33,IS,1702176286
18,margaret river,-33.95,115.0667,23.76,29,0,0.34,AU,1702176291
19,college,64.8569,-147.8028,-24.19,74,20,0.0,US,1702176298
20,the bottom,17.6259,-63.2492,25.31,75,29,10.41,BQ,1702176561
21,albany,42.6001,-73.9662,9.36,85,100,2.65,US,1702176561
22,yichun,47.7,128.9,-21.78,77,28,5.56,CN,1702176561
23,tazovsky,67.4667,78.7,-38.11,100,52,1.97,RU,1702176322
24,antofagasta,-23.65,-70.4,17.6,81,58,1.46,CL,1702176251
25,punta arenas,-53.15,-70.9167,9.06,81,100,6.17,CL,1702176291
26,robinson,31.4677,-97.1147,13.32,49,0,9.26,US,1702176562
27,kem',64.9555,34.5793,-14.42,90,100,5.55,RU,1702176562
28,tamanrasset,22.785,5.5228,7.95,29,0,1.03,DZ,1702176562
29,karratha,-20.7377,116.8463,33.0,20,10,10.29,AU,1702176304
30,papatowai,-46.5619,169.4708,13.86,50,64,6.99,NZ,1702176562
31,port-aux-francais,-49.35,70.2167,3.12,79,96,11.59,TF,1702176563
32,kurchum,48.5722,83.6542,-16.29,82,87,1.19,KZ,1702176563
33,mata-utu,-13.2816,-176.1745,28.58,68,95,2.24,WF,1702176563
34,port saint john's,-31.6229,29.5448,18.95,88,100,5.41,ZA,1702176563
35,priozersk,61.0393,30.1291,-9.44,84,100,4.7,RU,1702176563
36,ribeira grande,38.5167,-28.7,18.21,90,100,9.39,PT,1702176289
37,olonkinbyen,70.9221,-8.7187,-5.76,63,99,3.98,SJ,1702176299
38,jinka,5.65,36.65,18.94,63,77,0.91,ET,1702176563
39,codrington,-38.2667,141.9667,15.63,64,99,7.63,AU,1702176339
40,suwayr,30.1171,40.3893,12.52,52,23,3.63,SA,1702176564
41,touros,-5.1989,-35.4608,26.45,71,80,6.51,BR,1702176344
42,tarko-sale,64.9225,77.785,-39.67,100,36,2.17,RU,1702176564
43,mont-dore,-22.2833,166.5833,29.99,99,100,8.01,NC,1702176329
44,nova xavantina,-14.6667,-52.35,28.33,44,96,0.66,BR,1702176564
45,geraldton,-28.7667,114.6,29.23,14,0,11.32,AU,1702176107
46,qaqortoq,60.7167,-46.0333,-5.86,76,77,2.46,GL,1702176337
47,tiksi,71.6872,128.8694,-24.15,99,100,1.93,RU,1702176288
48,mamadysh,55.7152,51.408,-23.4,100,75,1.98,RU,1702176564
49,iranshahr,27.2025,60.6848,10.19,25,0,0.0,IR,1702176528
50,stanley,54.868,-1.6985,7.38,91,40,6.17,GB,1702176289
51,chonchi,-42.6128,-73.8092,10.56,94,61,1.24,CL,1702176311
52,masterton,-40.9597,175.6575,14.94,97,100,4.04,NZ,1702176565
53,wailua homesteads,22.0669,-159.378,25.44,76,0,3.09,US,1702176326
54,hammerfest,70.6634,23.6821,-5.75,58,99,6.17,NO,1702176293
55,nianzishan,47.5167,122.8833,-15.78,53,0,6.85,CN,1702176565
56,duba,27.3513,35.6901,21.85,41,38,1.62,SA,1702176490
57,haenam,34.5711,126.5989,17.62,71,5,3.01,KR,1702176377
58,lindsdal,56.7333,16.3,3.25,97,100,2.57,SE,1702176565
59,ust'-kulom,61.6864,53.6902,-29.11,100,96,0.56,RU,1702176326
60,haiku-pauwela,20.9219,-156.3051,26.01,71,40,9.26,US,1702176338
61,blackmans bay,-43.0167,147.3167,20.85,49,0,0.45,AU,1702176290
62,tofol,5.3248,163.0078,30.88,70,75,9.26,FM,1702176374
63,guiuan,11.0333,125.7247,27.98,78,93,6.09,PH,1702176565
64,amboasary,-25.0333,46.3833,23.05,80,0,0.47,MG,1702176565
65,bomdila,27.25,92.4,8.21,74,60,0.7,IN,1702176566
66,jamestown,42.097,-79.2353,13.64,85,100,4.12,US,1702176308
67,sitka,57.0531,-135.33,2.94,93,100,1.54,US,1702176320
68,west island,-12.1568,96.8225,26.99,78,75,7.2,CC,1702176298
69,cova figueira,14.8905,-24.2934,22.86,65,89,3.7,CV,1702176370
70,edinburgh of the seven seas,-37.0676,-12.3116,13.28,79,100,7.06,SH,1702176298
71,udachny,66.4167,112.4,-29.2,82,100,2.2,RU,1702176351
72,susuman,62.7833,148.1667,-13.34,93,100,0.45,RU,1702176387
73,iqaluit,63.7506,-68.5145,-5.15,93,100,4.63,CA,1702176307
74,zeya,53.75,127.2667,-26.4,89,100,3.18,RU,1702176566
75,el jadid,33.2549,-8.506,17.52,85,2,6.85,MA,1702176566
76,jonuta,18.0833,-92.1333,23.85,81,77,2.49,MX,1702176324
77,cienfuegos,22.1461,-80.4356,23.08,88,61,3.09,CU,1702176566
78,kayangel,8.0823,134.7173,28.61,76,100,5.83,PW,1702176370
79,lihue,21.9789,-159.3672,25.77,69,0,3.09,US,1702176291
80,cockburn town,21.4612,-71.1419,26.44,78,92,12.3,TC,1702176347
81,bredasdorp,-34.5322,20.0403,14.61,88,38,1.84,ZA,1702176287
82,whitehorse,60.7161,-135.0538,-9.95,90,100,3.6,CA,1702176298
83,acajutla,13.5928,-89.8275,26.51,73,80,3.19,SV,1702176567
84,port elizabeth,-33.918,25.5701,13.94,87,0,2.57,ZA,1702176320
85,tolanaro,-25.0319,46.9987,22.04,88,20,5.14,MG,1702176300
86,sal rei,16.1833,-22.9167,24.54,76,0,3.89,CV,1702176567
87,adam,22.3756,57.5233,16.47,68,10,0.95,OM,1702176567
88,ulladulla,-35.35,150.4667,24.87,89,100,3.05,AU,1702176567
89,chak two hundred forty-nine thal development authority,31.1796,71.2095,14.92,34,11,0.8,PK,1702176568
90,vilyuchinsk,52.9306,158.4028,1.07,98,100,8.45,RU,1702176311
91,atafu village,-8.5421,-172.5159,29.21,75,99,4.14,TK,1702176568
92,antsiranana,-12.2787,49.2917,25.79,84,97,6.38,MG,1702176568
93,saipan,15.1355,145.701,30.39,70,40,7.2,MP,1702176350
94,astrakhan,46.3497,48.0408,-3.07,80,75,9.0,RU,1702176568
95,dakhla,23.6848,-15.958,20.59,57,94,4.93,EH,1702176568
96,polyarnyy,69.1989,33.4478,-14.08,94,65,7.12,RU,1702176389
97,glace bay,46.1969,-59.957,-0.62,93,20,2.06,CA,1702176326
98,utrik,11.2278,169.8474,27.29,80,64,8.39,MH,1702176332
99,vila franca do campo,37.7167,-25.4333,18.27,99,100,6.93,PT,1702176569
100,manokwari,-0.8667,134.0833,28.96,73,88,3.98,ID,1702176569
101,hawaiian paradise park,19.5933,-154.9731,26.73,84,0,3.6,US,1702176298
102,buenavista,8.9769,125.4089,30.18,63,84,1.21,PH,1702176569
103,kodiak,57.79,-152.4072,-7.27,73,0,2.57,US,1702176201
104,mezhova,48.2532,36.7347,0.55,88,100,5.2,UA,1702176569
105,st. john's,47.5649,-52.7093,2.1,87,75,10.8,CA,1702176260
106,avarua,-21.2078,-159.775,26.03,83,100,10.29,CK,1702176311
107,prince albert,53.2001,-105.7677,-11.03,85,0,4.12,CA,1702176569
108,itaituba,-4.2761,-55.9836,23.9,98,92,1.01,BR,1702176569
109,namtsy,62.7161,129.6658,-32.22,98,100,1.78,RU,1702176570
110,badger,64.8,-147.5333,-24.24,75,20,0.0,US,1702176299
111,oltinko'l,40.8011,72.1634,2.75,75,57,0.9,UZ,1702176570
112,apolinario saravia,-24.4328,-63.9954,24.19,80,82,3.19,AR,1702176570
113,polyarnyye zori,67.3661,32.4981,-14.63,96,100,1.67,RU,1702176570
114,robore,-18.3333,-59.75,26.28,64,82,1.77,BO,1702176570
115,pasuquin,18.3328,120.6177,29.97,79,40,3.09,PH,1702176335
116,hlukhiv,51.6782,33.9162,-4.34,97,99,2.29,UA,1702176571
117,porto seguro,-16.4497,-39.0647,26.29,89,20,1.54,BR,1702176571
118,kolonia town,6.964,158.206,30.06,79,100,5.14,FM,1702176571
119,malanje,-9.5402,16.341,16.24,99,99,1.19,AO,1702176571
120,'ain deheb,34.8422,1.547,6.57,75,18,2.51,DZ,1702176571
121,collie,-33.3667,116.15,25.38,17,0,4.36,AU,1702176571
122,port douglas,-16.4833,145.4667,28.33,65,68,5.78,AU,1702176297
123,yellowknife,62.456,-114.3525,-9.71,85,100,6.17,CA,1702176296
124,khovd,48.0056,91.6419,-16.31,79,7,1.19,MN,1702176572
125,anadyr,64.75,177.4833,-25.72,76,0,4.0,RU,1702176291
126,saint-tropez,43.2693,6.6398,15.9,65,0,12.43,FR,1702176572
127,saint-pierre,-21.3393,55.4781,25.32,69,0,3.09,RE,1702176362
128,umm kaddadah,13.6017,26.6876,17.41,17,58,3.42,SD,1702176295
129,alice town,25.7167,-79.3,25.34,66,97,8.12,BS,1702176572
130,ishinomaki,38.4167,141.3,16.0,71,69,7.05,JP,1702176572
131,sheridan,44.8333,-106.9173,-6.79,73,0,2.57,US,1702176390
132,ancud,-41.8697,-73.8203,10.74,94,70,1.86,CL,1702176304
133,ushuaia,-54.8,-68.3,7.81,81,20,6.17,AR,1702176291
134,prince george,53.9166,-122.753,-0.31,93,100,9.26,CA,1702176525
135,bailesti,44.0167,23.35,1.14,83,100,1.67,RO,1702176572
136,hamilton,39.1834,-84.5333,11.16,92,100,4.12,US,1702176171
137,selfoss,63.9331,-20.9971,-6.09,67,14,3.36,IS,1702176290
138,kedougou,12.5579,-12.1743,23.42,18,90,1.08,SN,1702176573
139,cangucu,-31.395,-52.6756,14.89,89,78,4.48,BR,1702176573
140,crane,31.3974,-102.3501,6.54,42,0,6.62,US,1702176338
141,al karamah,31.9522,35.5792,17.21,58,22,2.1,JO,1702176573
142,iskateley,67.6803,53.1512,-27.21,92,12,2.68,RU,1702176357
143,tchintabaraden,15.8969,5.7985,19.33,17,10,2.77,NE,1702176573
144,hohhot,40.8106,111.6522,1.16,34,0,6.0,CN,1702176573
145,zimovniki,47.1483,42.4633,-0.72,90,100,7.72,RU,1702176573
146,hadibu,12.65,54.0333,24.63,75,57,5.19,YE,1702176292
147,orapa,-21.2833,25.3667,21.11,76,100,4.08,BW,1702176574
148,la'ie,21.6477,-157.9253,27.98,69,1,1.34,US,1702176574
149,hermanus,-34.4187,19.2345,16.16,81,26,3.94,ZA,1702176297
150,vallegrande,-18.4897,-64.1069,14.7,94,94,1.69,BO,1702176574
151,happy valley-goose bay,53.3168,-60.3315,-9.83,67,20,3.6,CA,1702176574
152,woodward,36.4337,-99.3904,2.2,46,0,3.6,US,1702176574
153,zemio,5.0314,25.1361,20.14,62,9,0.68,CF,1702176574
154,dazhou,31.2159,107.5009,15.25,71,100,1.09,CN,1702176574
155,carauari,-4.8828,-66.8958,24.25,97,100,1.03,BR,1702176574
156,gadzhiyevo,69.2551,33.3362,-14.81,95,58,6.94,RU,1702176349
157,i-n-salah,27.1935,2.4607,12.13,37,0,4.18,DZ,1702176575
158,richards bay,-28.783,32.0377,20.93,95,100,4.86,ZA,1702176339
159,fort bragg,35.139,-79.006,18.32,82,75,2.06,US,1702176290
160,presidencia de la plaza,-27.0015,-59.8424,21.68,89,99,2.89,AR,1702176501
161,colonia,50.9333,6.95,10.54,67,75,9.26,DE,1702176575
162,aasiaat,68.7098,-52.8699,-12.58,87,100,3.48,GL,1702176294
163,"laikit, laikit ii (dimembe)",1.4792,124.9735,29.47,70,40,2.06,ID,1702176575
164,sosnovo-ozerskoye,52.5249,111.5418,-26.48,92,63,4.35,RU,1702176575
165,acapulco de juarez,16.8634,-99.8901,27.9,78,100,1.54,MX,1702176303
166,pismo beach,35.1428,-120.6413,14.75,59,38,0.45,US,1702176575
167,strathmore,51.0501,-113.3852,-2.58,86,100,2.34,CA,1702176575
168,ballina,-28.8667,153.5667,29.32,59,1,5.01,AU,1702176575
169,villa gesell,-37.2639,-56.973,17.25,91,100,3.87,AR,1702176576
170,santa rosa de lima,13.6247,-87.8936,25.31,64,23,2.05,SV,1702176576
171,guerrero negro,27.9769,-114.0611,19.89,43,0,1.47,MX,1702176346
172,ornskoldsvik,63.2909,18.7153,-6.47,93,100,2.06,SE,1702176576
173,nova sintra,14.8667,-24.7167,22.53,71,69,4.27,CV,1702176300
174,ironwood,46.4547,-90.171,0.31,93,100,7.2,US,1702176576
175,tuy hoa,13.0833,109.3,26.6,74,55,0.37,VN,1702176576
176,bathsheba,13.2167,-59.5167,26.34,83,40,8.75,BB,1702176576
177,bardai,11.65,7.2333,17.02,17,78,3.36,NG,1702176576
178,musan-up,42.2261,129.2078,-4.5,23,16,3.52,KP,1702176576
179,bilibino,68.0546,166.4372,-18.99,100,98,0.82,RU,1702176293
180,remire-montjoly,4.9167,-52.2667,24.02,94,0,0.0,GF,1702176576
181,pisco,-13.7,-76.2167,20.03,77,100,2.57,PE,1702176359
182,qarazhal,48.0078,70.7903,-21.47,83,0,1.75,KZ,1702176577
183,shubarshi,48.5872,57.1869,-11.25,43,100,5.95,KZ,1702176577
184,ribeira brava,32.65,-17.0667,20.35,80,7,3.0,PT,1702176577
185,caleta de carquin,-11.0925,-77.6267,19.93,84,100,4.01,PE,1702176296
186,thompson,55.7435,-97.8558,-7.91,93,100,1.54,CA,1702176330
187,dolores,-36.3132,-57.6792,15.35,89,100,2.18,AR,1702176577
188,ust'-barguzin,53.45,108.9833,-18.56,96,100,2.5,RU,1702176577
189,kandahar,31.0,65.75,6.94,35,0,0.38,AF,1702176577
190,nabire,-3.3667,135.4833,26.27,88,100,1.07,ID,1702176375
191,kenai,60.5544,-151.2583,-6.59,99,100,2.57,US,1702176578
192,ilulissat,69.2167,-51.1,-4.99,74,100,4.12,GL,1702176286
193,holualoa,19.6228,-155.9522,25.83,76,20,4.12,US,1702176578
194,enewetak,11.3474,162.3373,27.55,79,10,8.21,MH,1702176317
195,lensk,60.7253,114.9278,-28.51,92,100,4.9,RU,1702176356
196,port macquarie,-31.4333,152.9167,28.27,60,0,6.72,AU,1702176386
197,urumqi,43.801,87.6005,-8.47,86,75,1.0,CN,1702176578
198,lompoc,34.6391,-120.4579,15.08,67,0,3.58,US,1702176295
199,cantanhede,-3.6333,-44.3767,24.12,91,96,2.14,BR,1702176578
200,iwanai,42.9744,140.5089,-1.22,65,100,7.83,JP,1702176578
201,lazaro cardenas,17.9583,-102.2,25.28,79,3,1.13,MX,1702176292
202,klyuchi,52.2667,79.1667,-21.0,77,48,1.67,RU,1702176330
203,gazli,40.1333,63.45,-2.1,44,55,6.47,UZ,1702176579
204,smithers,54.7804,-127.1743,-2.82,93,100,3.6,CA,1702176364
205,jumla,29.2747,82.1838,8.0,23,0,0.45,NP,1702176534
206,kristiansund,63.1115,7.732,1.36,64,75,1.54,NO,1702176579
207,edd,13.9297,41.6925,25.62,58,0,6.76,ER,1702176579
208,al hazm,16.1641,44.7769,13.67,31,2,0.99,YE,1702176331
209,georgetown,5.4112,100.3354,30.96,70,20,2.57,MY,1702176401
210,kandi,11.1342,2.9386,20.1,14,1,2.1,BJ,1702176580
211,weno,7.4515,151.8468,29.97,79,100,3.6,FM,1702176325
212,dryden,49.7833,-92.7503,-7.84,93,100,3.6,CA,1702176580
213,mana,5.6592,-53.7767,25.44,91,48,3.21,GF,1702176580
214,puerto ayora,-0.7393,-90.3518,24.19,96,35,2.24,EC,1702176297
215,bikenibeu village,1.3673,173.1241,30.98,74,75,2.57,KI,1702176388
216,fort mcmurray,56.7268,-111.381,-9.23,85,100,2.06,CA,1702176303
217,oriximina,-1.7656,-55.8661,26.24,81,100,0.77,BR,1702176580
218,howard springs,-12.497,131.047,34.93,75,22,1.1,AU,1702176580
219,namibe,-15.1961,12.1522,23.62,83,100,2.21,AO,1702176580
220,liman,48.9884,37.8023,-1.57,91,100,5.73,UA,1702176580
221,vadso,70.0744,29.7487,-11.91,85,100,8.75,NO,1702176328
222,teluk nibung,3.001,99.8164,26.88,85,100,1.57,ID,1702176580
223,kavaratti,10.5669,72.642,28.6,74,73,4.58,IN,1702176304
224,shiyan,32.6475,110.7781,6.2,82,100,4.69,CN,1702176430
225,legnica,51.2101,16.1619,1.69,94,100,6.24,PL,1702176581
226,diego de almagro,-26.3667,-70.05,19.37,49,0,0.56,CL,1702176581
227,quellon,-43.1167,-73.6167,11.66,85,100,2.89,CL,1702176307
228,agaete,28.1002,-15.7,18.77,76,4,3.65,ES,1702176581
229,bandon,51.7469,-8.7425,9.77,96,100,6.63,IE,1702176581
230,arsk,56.0915,49.8778,-27.83,99,42,3.22,RU,1702176581
231,namdrik,5.5994,168.1028,28.07,79,22,6.6,MH,1702176581
232,camenca,48.0319,28.6978,0.56,89,100,1.7,MD,1702176582
233,rajpipla,21.8667,73.5,22.25,57,0,1.98,IN,1702176582
234,nouadhibou,20.931,-17.0347,21.99,43,67,6.69,MR,1702176582
235,kapit,2.0167,112.9333,23.2,98,100,0.44,MY,1702176582
236,longyearbyen,78.2186,15.6401,-5.09,63,75,4.63,SJ,1702176262
237,las higueras,-33.0923,-64.289,16.34,88,0,2.06,AR,1702176583
238,howrah,22.5892,88.3103,19.0,82,3,1.54,IN,1702176327
239,bingerville,5.3584,-3.8869,26.52,89,20,2.06,CI,1702176583
240,tikrit,34.6071,43.6782,14.3,66,11,0.72,IQ,1702176583
241,sikonge,-5.6333,32.7667,17.55,92,88,1.15,TZ,1702176583
242,byron bay,-28.65,153.6167,29.28,58,13,4.38,AU,1702176376
243,port isabel,26.0734,-97.2086,23.92,91,0,2.06,US,1702176313
244,la passe,45.5549,-0.8967,11.1,90,100,3.68,FR,1702176327
245,venice,27.0998,-82.4543,22.21,87,99,0.89,US,1702176583
246,sao paulo de olivenca,-3.3783,-68.8725,24.04,95,100,0.66,BR,1702176583
247,kurchatov,51.6601,35.6521,-3.66,95,99,4.22,RU,1702176513
248,carutapera,-1.195,-46.02,26.61,81,93,3.18,BR,1702176584
249,mendoza,-32.8908,-68.8272,24.74,41,0,3.6,AR,1702176572
250,nagqu,31.5,92.0,-8.76,53,3,1.88,CN,1702176584
251,sao joao do paraiso,-15.3136,-42.0144,20.92,75,46,2.71,BR,1702176584
252,anloga,5.7947,0.8973,27.71,80,15,3.23,GH,1702176584
253,saint-philippe,-21.3585,55.7679,24.77,85,53,4.97,RE,1702176298
254,bamboo flat,11.7,92.7167,28.05,89,20,1.03,IN,1702176341
255,xinzhou,38.4092,112.7333,-0.57,62,100,1.99,CN,1702176584
256,ambalavao,-21.8333,46.9333,18.42,85,5,1.23,MG,1702176584
257,aras-asan,8.8908,126.3033,29.05,70,100,2.97,PH,1702176585
258,sola,-13.8833,167.55,26.69,76,100,8.12,VU,1702176585
259,nawabshah,26.2483,68.4096,19.0,30,2,1.29,PK,1702176585
260,zharkent,44.1628,80.0,-6.18,79,89,1.61,KZ,1702176585
261,puerto rosario,-24.45,-57.0833,25.58,83,71,2.02,PY,1702176585
262,barreiras,-12.1528,-44.99,25.59,52,98,0.64,BR,1702176585
263,san patricio,28.017,-97.5169,23.05,39,100,9.31,US,1702176357
264,kirkkonummi,60.1238,24.4385,-4.01,100,100,4.25,FI,1702176585
265,mount isa,-20.7333,139.5,37.87,28,40,5.14,AU,1702176585
266,novoishimskiy,53.1981,66.7694,-27.19,99,96,1.96,KZ,1702176585
267,castelnuovo del garda,45.4388,10.7598,4.34,98,75,2.06,IT,1702176585
268,dunedin,-45.8742,170.5036,14.14,54,97,5.88,NZ,1702176585
269,daru,-9.0763,143.2092,29.79,68,98,5.44,PG,1702176586
270,deqen,29.9618,90.7188,-3.58,69,3,1.76,CN,1702176586
271,kingman,35.1894,-114.053,7.71,18,0,5.66,US,1702176586
272,walvis bay,-22.9575,14.5053,15.61,94,0,3.09,NA,1702176384
273,fale old settlement,-9.3852,-171.2468,29.05,74,100,3.12,TK,1702176319
274,robertsport,6.7533,-11.3686,27.11,83,29,3.44,LR,1702176586
275,bolivar,37.6145,-93.4105,4.44,61,0,5.89,US,1702176586
276,kone,-21.0595,164.8658,29.33,40,99,4.5,NC,1702176317
277,lebu,-37.6167,-73.65,12.17,83,0,8.98,CL,1702176344
278,puerto baquerizo moreno,-0.9,-89.6,23.64,91,2,4.84,EC,1702176384
279,vung tau,10.346,107.0843,27.34,71,100,4.62,VN,1702176586
280,kargasok,59.0556,80.8572,-25.02,97,99,3.58,RU,1702176586
281,kapuskasing,49.4169,-82.4331,1.05,100,100,5.66,CA,1702176145
282,kodinsk,58.6881,99.1844,-29.76,99,81,0.87,RU,1702176586
283,kulunda,52.566,78.9385,-21.38,84,35,1.31,RU,1702176587
284,kudahuvadhoo,2.6708,72.8944,28.29,74,88,2.34,MV,1702176587
285,nemuro,43.3236,145.575,3.7,51,72,4.66,JP,1702176302
286,nantucket,41.2835,-70.0995,9.06,97,0,4.63,US,1702176587
287,ambovombe,-25.1667,46.0833,22.41,83,0,0.36,MG,1702176358
288,camana,-16.6228,-72.7111,19.81,82,97,1.85,PE,1702176338
289,taungoo,18.9333,96.4333,26.29,78,13,0.72,MM,1702176587
290,muntok,-2.0667,105.1833,28.8,73,100,2.25,ID,1702176587
291,malpica,43.3228,-8.8105,17.96,79,100,7.74,ES,1702176404
292,eenhana,-17.4667,16.3333,22.33,36,51,2.67,NA,1702176587
293,totness,5.8833,-56.3167,25.67,88,26,4.11,SR,1702176587
294,tanjung pandan,-2.75,107.65,26.56,84,100,3.15,ID,1702176587
295,chiang klang,19.2938,100.8617,28.57,64,7,0.86,TH,1702176587
296,huotong,26.8497,119.4181,23.93,52,16,0.86,CN,1702176587
297,alice springs,-23.7,133.8833,15.75,72,100,8.75,AU,1702176315
298,fortuna,40.5982,-124.1573,7.03,92,0,0.0,US,1702176367
299,port alfred,-33.5906,26.891,13.99,94,97,0.45,ZA,1702176286
300,idabel,33.8957,-94.8263,11.79,49,20,5.66,US,1702176588
301,pamandzi,-12.7967,45.2794,27.88,83,75,4.63,YT,1702176588
302,undurkhaan,47.3194,110.6556,-22.86,83,100,0.5,MN,1702176588
303,vila velha,-20.3297,-40.2925,22.97,91,75,4.12,BR,1702176296
304,acarau,-2.8856,-40.12,26.8,76,76,7.44,BR,1702176588
305,ambon,-3.6954,128.1814,30.08,74,40,2.06,ID,1702176433
306,wilmington,34.2257,-77.9447,18.95,92,75,2.57,US,1702176588
307,colachel,8.1667,77.25,27.27,77,100,2.29,IN,1702176588
308,north battleford,52.7834,-108.2847,-5.33,86,0,3.09,CA,1702176411
309,nar'yan-mar,67.6713,53.087,-27.16,92,12,2.68,RU,1702176588
310,kindu,-2.95,25.95,20.59,100,98,0.92,CD,1702176589
311,igarka,67.4667,86.5833,-41.49,100,83,1.86,RU,1702176375
312,barda,40.3744,47.1267,8.46,80,100,2.34,AZ,1702176589
313,east london,-33.0153,27.9116,15.8,88,100,3.93,ZA,1702176306
314,sao gabriel da cachoeira,-0.1303,-67.0892,23.37,99,100,0.27,BR,1702176589
315,constantia,44.1833,28.65,-1.62,87,74,4.34,RO,1702176264
316,ain sukhna,29.6002,32.3167,13.94,60,3,0.64,EG,1702176589
317,bada,51.392,109.8717,-20.48,77,23,2.86,RU,1702176589
318,lagoa,39.05,-27.9833,17.47,86,100,12.27,PT,1702176589
319,arkhangel'sk,64.5401,40.5433,-19.93,70,0,5.0,RU,1702176589
320,praia da vitoria,38.7333,-27.0667,19.14,82,40,9.7,PT,1702176354
321,altay,47.8667,88.1167,-14.79,84,97,1.57,CN,1702176355
322,hithadhoo,-0.6,73.0833,28.04,76,100,1.68,MV,1702176330
323,nova vicosa,-17.8919,-39.3719,24.53,86,76,1.9,BR,1702176590
324,prado,-17.3411,-39.2208,23.83,91,32,1.56,BR,1702176590
325,lake munmorah,-33.1936,151.5719,29.76,77,60,1.79,AU,1702176590
326,tumayr,25.7039,45.868,15.91,27,8,3.17,SA,1702176590
327,dudinka,69.4058,86.1778,-31.85,96,99,1.34,RU,1702176590
328,south hedland,-20.4089,118.5983,31.96,23,5,8.23,AU,1702176590
329,penalva,-3.2942,-45.1736,25.24,87,78,1.83,BR,1702176590
330,carnarvon,-24.8667,113.6333,31.74,28,0,8.42,AU,1702176590
331,rongelap,11.1635,166.8941,27.56,73,84,7.62,MH,1702176590
332,eldridge,41.6581,-90.5846,0.9,81,100,9.77,US,1702176590
333,tralee,52.2704,-9.7026,6.96,95,90,3.45,IE,1702176336
334,mammoth lakes,37.6485,-118.9721,-0.37,52,0,0.0,US,1702176408
335,sao jose da coroa grande,-8.8978,-35.1478,25.97,73,100,3.96,BR,1702176591
336,fort st. john,56.2499,-120.8529,-6.06,73,75,4.63,CA,1702176463
337,solnechnyy,50.7214,136.6319,-21.09,81,100,2.04,RU,1702176591
338,saldanha,-33.0117,17.9442,13.03,86,0,6.09,ZA,1702176401
339,belmonte,-15.8631,-38.8828,24.65,88,13,2.27,BR,1702176346
340,bentiu,9.2333,29.8333,22.95,28,37,2.22,SS,1702176591
341,san andres,12.5847,-81.7006,29.01,84,20,6.69,CO,1702176591
342,lata,40.1629,-8.3327,17.12,96,100,1.4,PT,1702176323
343,santo antonio do ica,-3.1022,-67.9397,24.1,97,100,0.75,BR,1702176591
344,lushun,38.8,121.2667,-2.88,51,100,13.93,CN,1702176591
345,gwadar,25.1216,62.3254,23.49,24,44,1.82,PK,1702176591
346,taltal,-25.4,-70.4833,17.14,85,25,1.18,CL,1702176342
347,chernigovka,44.3389,132.5728,-11.22,50,34,4.58,RU,1702176591
348,cloquet,46.7216,-92.4594,-1.74,88,100,6.69,US,1702176592
349,noumea,-22.2763,166.4572,29.99,99,100,9.76,NC,1702175822
350,alvorada,-12.48,-49.1247,29.27,33,64,2.16,BR,1702176592
351,laguna,38.421,-121.4238,10.6,76,0,1.54,US,1702176366
352,peniche,39.3558,-9.3811,17.28,96,100,3.69,PT,1702176113
353,fuglafjordur,62.244,-6.814,4.26,71,96,10.0,FO,1702176592
354,huicungo,-7.2833,-76.8,22.11,97,92,0.78,PE,1702176592
355,barroquinha,-3.0189,-41.1361,26.08,74,100,2.81,BR,1702176592
356,tadine,-21.55,167.8833,25.09,58,97,8.32,NC,1702176592
357,sydney,-33.8679,151.2073,28.76,80,75,7.72,AU,1702176091
358,bushehr,28.9684,50.8385,17.05,82,10,0.0,IR,1702176592
359,tchaourou,8.8865,2.5975,22.8,24,15,1.19,BJ,1702176592
360,at taj,24.2049,23.2857,12.44,39,1,1.96,LY,1702176592
361,aleksandrovsk,59.158,57.5624,-33.4,100,30,0.43,RU,1702176592
362,zhosaly,45.4878,64.0781,-9.84,26,100,6.32,KZ,1702176592
363,vorkuta,67.5,64.0,-23.75,100,100,2.02,RU,1702176367
364,vorgashor,67.5833,63.95,-23.5,99,100,2.13,RU,1702176357
365,thanatpin,17.2119,96.3033,27.1,72,2,0.92,MM,1702176593
366,lorengau,-2.0226,147.2712,27.0,86,100,5.97,PG,1702176354
367,vodice,43.7608,15.7828,8.17,86,100,9.11,HR,1702176593
368,itamaraca,-7.7478,-34.8256,27.03,73,100,4.72,BR,1702176356
369,pembroke,45.8168,-77.1162,4.56,98,100,3.43,CA,1702176593
370,palmer,42.1584,-72.3287,8.84,83,100,0.0,US,1702176593
371,lerwick,60.1545,-1.1494,8.0,89,100,8.93,GB,1702176318
372,mzimba,-11.9,33.6,18.26,86,86,3.31,MW,1702176593
373,afaahiti,-17.75,-149.2833,28.93,85,90,10.35,PF,1702176334
374,nizhniy odes,63.6445,54.856,-30.08,100,99,0.71,RU,1702176593
375,kilju,40.9642,129.3278,0.78,80,99,3.12,KP,1702176593
376,huarmey,-10.0681,-78.1522,20.22,86,100,3.82,PE,1702176402
377,the pas,53.8251,-101.2541,-7.99,86,0,3.09,CA,1702176593
378,nueil-les-aubiers,46.9377,-0.5887,9.94,95,36,5.24,FR,1702176594
379,port lincoln,-34.7333,135.8667,13.62,90,100,11.21,AU,1702176313
380,pandan,14.0453,124.1694,28.84,73,11,3.72,PH,1702176594
381,pyt-yakh,60.7499,72.8582,-34.01,98,18,2.0,RU,1702176594
382,aripuana,-9.1667,-60.6333,23.34,92,78,0.44,BR,1702176372
383,ain taya,36.7933,3.2869,8.91,81,0,1.03,DZ,1702176594
384,igreja,15.0333,-24.3333,24.02,66,71,3.44,CV,1702176594
385,sumbawa besar,-8.5,117.4333,32.47,56,10,2.03,ID,1702176594
386,colby,39.3958,-101.0524,-8.97,62,0,2.57,US,1702176594
387,mishan,45.55,131.8833,-16.66,70,1,7.74,CN,1702176594
388,buala,-8.145,159.5921,28.49,79,100,2.36,SB,1702176327
389,khambhat,22.3,72.6167,21.14,57,2,3.8,IN,1702176594
390,vakarai,55.6035,23.8213,-3.71,96,100,4.18,LT,1702176594
391,kish,26.5578,54.0194,21.15,68,2,2.06,IR,1702176595
392,moundou,8.5667,16.0833,21.08,24,37,1.43,TD,1702176595
393,malango,-2.9627,119.9001,29.54,54,54,1.17,ID,1702176595
394,santa cruz,-17.8,-63.1667,27.7,74,58,3.6,BO,1702176595
395,sassandra,4.95,-6.0833,25.92,86,58,2.04,CI,1702176595
396,tyukhtet,56.5389,89.3011,-35.74,100,62,1.65,RU,1702176386
397,san antonio,29.4241,-98.4936,17.25,43,0,8.23,US,1702175862
398,ad dilam,23.9915,47.1627,13.23,29,1,2.21,SA,1702176595
399,bantogon,6.5333,124.0333,28.37,73,12,3.5,PH,1702176595
400,revda,56.801,59.9303,-27.54,100,90,1.24,RU,1702176424
401,yondo,7.0062,-73.9097,25.25,89,36,0.32,CO,1702176595
402,kerikeri,-35.2268,173.9474,26.06,56,86,0.45,NZ,1702176404
403,kasongo-lunda,-6.4667,16.8167,19.84,99,100,0.46,CD,1702176595
404,yaren,-0.5472,166.916,28.42,75,88,3.58,NR,1702176596
405,okeechobee,27.2439,-80.8298,21.11,95,0,0.0,US,1702176596
406,bay roberts,47.5999,-53.2648,2.3,88,94,2.68,CA,1702176596
407,taulaga,-11.0553,-171.0883,28.21,77,98,3.71,AS,1702176596
408,piskivka,50.6938,29.6193,-3.21,95,100,2.21,UA,1702176596
409,brisas de zicatela,15.8369,-97.0419,27.29,69,20,0.0,MX,1702176596
410,mizdah,31.4451,12.9801,14.08,73,97,10.5,LY,1702176596
411,galesong,-5.3166,119.3661,31.01,69,93,2.19,ID,1702176299
412,mirny,62.5353,113.9611,-27.56,96,100,3.52,RU,1702176596
413,wanning,18.8003,110.3967,26.79,71,58,3.38,CN,1702176596
414,kapa'a,22.0752,-159.319,26.18,76,0,3.09,US,1702176325
415,kalmunai,7.4167,81.8167,26.99,83,83,2.96,LK,1702176596
416,cidreira,-30.1811,-50.2056,20.38,78,71,9.34,BR,1702176303
417,coquimbo,-29.9533,-71.3436,14.85,88,0,1.03,CL,1702176596
418,san isidro de curuguaty,-24.5167,-55.7,23.63,96,24,1.63,PY,1702176596
419,boyolangu,-8.1181,111.8935,29.87,62,46,4.16,ID,1702176597
420,margate,51.3813,1.3862,9.37,69,6,5.81,GB,1702176399
421,hasaki,35.7333,140.8333,18.22,54,0,0.74,JP,1702176346
422,bujaru,-1.515,-48.0447,24.92,89,78,1.1,BR,1702176597
423,bara uchana,29.4667,76.1667,14.12,32,7,2.61,IN,1702176597
424,carbonear,47.7332,-53.2148,3.01,85,86,7.91,CA,1702176553
425,horta,38.5333,-28.6333,17.79,90,100,8.05,PT,1702176597
426,calchaqui,-29.8877,-60.287,19.42,73,49,3.02,AR,1702176501
427,olympia,47.0379,-122.9007,7.4,96,100,7.72,US,1702176387
428,pallasovka,50.05,46.8833,-6.99,53,90,7.58,RU,1702176597
429,nadvoitsy,63.8667,34.3167,-14.75,91,100,5.55,RU,1702176597
430,mungwi,-10.1732,31.3694,16.47,93,85,0.89,ZM,1702176597
431,umba,66.6871,34.3429,-9.3,94,100,6.07,RU,1702176597
432,champerico,14.3,-91.9167,26.56,77,45,3.01,GT,1702176331
433,kemijarvi,66.7131,27.4306,-12.26,94,100,3.07,FI,1702176597
434,san rafael del yuma,18.4299,-68.6739,26.76,81,3,6.35,DO,1702176597
435,pesqueria,25.7833,-100.05,22.81,24,2,5.72,MX,1702176598
436,tambopata,-12.7333,-69.1833,24.73,77,45,1.06,PE,1702176598
437,barcelos,41.5388,-8.6151,17.08,97,100,3.22,PT,1702176598
438,gonen,40.1049,27.654,8.9,55,100,0.75,TR,1702176598
439,banda aceh,5.5577,95.3222,27.67,78,100,0.62,ID,1702176019
440,renqiu,38.6989,116.0936,1.48,34,100,4.94,CN,1702176598
441,monett,36.929,-93.9277,3.98,71,0,3.6,US,1702176598
442,keokuk,40.3973,-91.3849,2.83,69,100,6.69,US,1702176598
443,island harbour,50.724,-1.2758,11.07,84,3,3.58,GB,1702176387
444,sittwe,20.15,92.9,22.71,76,26,2.46,MM,1702176598
445,ajdabiya,30.7554,20.2263,14.27,76,92,2.72,LY,1702176314
446,peterhead,57.5058,-1.7981,7.22,89,100,3.3,GB,1702176598
447,queenstown,-31.8976,26.8753,11.17,92,100,2.48,ZA,1702176598
448,talara,-4.5772,-81.2719,22.42,83,40,5.14,PE,1702176598
449,saint cloud,45.5608,-94.1625,-2.09,80,100,6.69,US,1702176352
450,georgiyevka,43.0369,74.7114,-4.98,93,100,2.0,KZ,1702176598
451,esqueda,30.7167,-109.5833,9.38,20,0,3.98,MX,1702176598
452,urangan,-25.3,152.9,26.12,63,99,8.23,AU,1702176599
453,choibalsan,48.0667,114.5,-24.85,84,6,2.29,MN,1702176599
454,tanguieta,10.6212,1.2665,21.56,14,9,2.13,BJ,1702176599
455,kenora,49.8167,-94.4337,-6.46,79,100,3.6,CA,1702176599
456,shatki,55.1887,44.1249,-15.69,94,100,4.81,RU,1702176599
457,coahuayana de hidalgo,18.7,-103.6583,24.26,78,0,1.1,MX,1702176599
458,smolenskaya,44.7887,38.8018,4.23,97,100,3.25,RU,1702176599
459,villeneuve-sur-yonne,48.0825,3.2969,8.43,92,20,8.14,FR,1702176599
460,sinabang,2.4803,96.3801,27.37,81,99,2.08,ID,1702176307
461,gorom-gorom,14.4439,-0.2361,21.68,14,28,3.1,BF,1702176599
462,sumenep,-7.0167,113.8667,29.6,68,98,0.62,ID,1702176599
463,bouca,6.5105,18.2733,21.78,45,85,1.14,CF,1702176599
464,pachino,36.7186,15.0907,12.95,70,35,2.93,IT,1702176599
465,tazacorte,28.629,-17.9293,18.97,92,20,4.12,ES,1702176353
466,beloyarskiy,63.7119,66.6722,-35.0,100,28,1.34,RU,1702176599
467,bogale,16.2833,95.4,28.2,69,0,2.83,MM,1702176600
468,colesberg,-30.72,25.0972,10.37,80,100,5.36,ZA,1702176600
469,llanes,43.4198,-4.7549,14.87,87,100,2.93,ES,1702176600
470,tete,-16.1564,33.5867,27.05,54,0,1.54,MZ,1702176600
471,stephenville,32.2207,-98.2023,9.07,47,0,5.14,US,1702176418
472,narvik,68.4384,17.4272,-3.44,71,100,4.06,NO,1702176600
473,campoverde,-8.4753,-74.8058,23.83,98,98,0.31,PE,1702176600
474,saarijarvi,62.7049,25.254,-10.91,95,100,2.86,FI,1702176600
475,jiagedaqi,50.4167,124.1167,-19.03,57,0,4.78,CN,1702176600
476,nuku'alofa,-21.1333,-175.2,24.19,88,100,5.66,TO,1702176397
477,shakiso,5.75,38.9167,12.36,76,13,1.4,ET,1702176601
478,arroyo,41.6096,-4.7969,12.28,88,100,5.14,ES,1702176601
479,kaesong,37.9708,126.5544,9.77,58,83,3.54,KP,1702176601
480,dosso,13.049,3.1937,21.06,14,100,2.89,NE,1702176601
481,abashiri,44.0213,144.2697,5.16,33,20,1.03,JP,1702176601
482,harper,4.375,-7.7169,26.49,84,12,3.19,LR,1702176601
483,tottenham,-32.2333,147.35,39.42,20,1,5.44,AU,1702176601
484,singaraja,-8.112,115.0882,31.18,60,13,0.96,ID,1702176374
485,machico,32.7,-16.7667,20.35,69,75,3.09,PT,1702176601
486,waingapu,-9.6567,120.2641,30.78,63,99,1.89,ID,1702176602
487,gharo,24.7424,67.5856,14.12,39,0,1.21,PK,1702176602
488,slave lake,55.2834,-114.769,-6.01,73,100,3.6,CA,1702176582
489,cestos city,5.46,-9.5828,27.01,81,10,2.11,LR,1702176602
490,quibdo,5.6947,-76.6611,24.6,98,92,1.05,CO,1702176602
491,luderitz,-26.6481,15.1594,14.67,83,0,9.06,NA,1702176405
492,sumberpucung,-8.1586,112.4829,28.58,67,61,2.89,ID,1702176603
493,pariaman,-0.619,100.12,29.03,75,94,0.53,ID,1702176603
494,saint-joseph,-21.3667,55.6167,24.71,83,34,4.37,RE,1702176603
495,rio grande,-32.035,-52.0986,19.97,76,13,8.26,BR,1702176276
496,chapeco,-27.0964,-52.6183,20.86,88,0,4.63,BR,1702176396
497,gizo,-8.103,156.8419,28.63,77,79,5.69,SB,1702176604
498,nizhnyaya poyma,56.1622,97.1933,-30.12,97,30,1.17,RU,1702176604
499,tarauaca,-8.1614,-70.7656,23.86,92,100,1.02,BR,1702176604
500,kailua-kona,19.6406,-155.9956,27.9,76,20,4.12,US,1702176371
501,papao,-17.75,-149.55,29.82,85,86,11.72,PF,1702176405
502,inirida,3.8653,-67.9239,23.9,97,100,0.78,CO,1702176604
503,ketchikan,55.3422,-131.6461,7.99,93,100,4.63,US,1702176325
504,kilindoni,-7.9139,39.6668,26.44,81,15,2.39,TZ,1702176605
505,mount gambier,-37.8333,140.7667,15.9,56,100,6.44,AU,1702176331
506,coxim,-18.5067,-54.76,27.74,67,99,2.39,BR,1702176605
507,calama,-22.4667,-68.9333,16.27,20,0,4.63,CL,1702176606
508,al bawiti,28.3492,28.8659,12.58,55,11,2.64,EG,1702176606
509,borovskoy,53.8,64.15,-23.82,98,76,3.08,KZ,1702176606
510,okhotsk,59.3833,143.3,-1.35,94,100,12.51,RU,1702176606
511,jieshou,33.2634,115.3611,8.17,68,100,7.72,CN,1702176607
512,masuguru,-11.3667,38.4167,23.0,94,28,1.0,TZ,1702176607
513,keflavik,64.0049,-22.5624,1.24,86,40,2.06,IS,1702176382
514,veraval,20.9,70.3667,22.09,45,2,4.71,IN,1702176607
515,saint-felicien,48.6501,-72.4491,-1.62,93,100,2.06,CA,1702176608
516,bratsk,56.1325,101.6142,-31.73,92,52,0.79,RU,1702176608
517,east aurora,42.7678,-78.6134,14.64,74,100,2.24,US,1702176506
518,pathein,16.7833,94.7333,28.36,66,9,3.27,MM,1702176608
519,yeppoon,-23.1333,150.7333,29.88,63,21,9.74,AU,1702176608
520,obolo-eke (1),6.8833,7.6333,21.73,43,0,2.03,NG,1702176608
521,la toma,-33.0526,-65.6238,16.75,74,0,0.59,AR,1702176608
522,karatsu,33.4425,129.9697,19.94,60,6,1.07,JP,1702176608
523,meulaboh,4.1363,96.1285,27.58,78,84,1.36,ID,1702176609
524,minas de marcona,-15.2119,-75.1103,15.27,80,100,4.56,PE,1702176329
525,caldwell,43.6629,-116.6874,4.08,68,100,5.66,US,1702176609
526,moyale,3.5167,39.0584,19.4,46,15,4.04,KE,1702176609
527,blackwater,-23.5833,148.8833,33.18,30,0,9.12,AU,1702176609
528,nema,57.5067,50.5011,-32.2,99,45,1.54,RU,1702176609
529,san luis,-33.295,-66.3356,19.4,60,0,3.56,AR,1702176386
530,obonoma,4.7084,6.7931,25.74,89,8,1.85,NG,1702176610
531,florida city,25.4479,-80.4792,25.01,87,100,1.54,US,1702176534
532,kill devil hills,36.0307,-75.676,17.21,87,0,3.09,US,1702176610
533,florence,43.7667,11.25,10.69,94,75,2.57,IT,1702176583
534,cherniakhiv,50.4565,28.6702,-3.04,96,100,3.16,UA,1702176610
535,soio,-6.1349,12.3689,26.77,80,100,2.76,AO,1702176610
536,dhenkanal,20.6667,85.6,21.78,59,1,1.13,IN,1702176610
537,timbuktu,16.7735,-3.0074,20.72,24,97,5.75,ML,1702176611
538,north bay,46.3168,-79.4663,6.08,94,75,5.14,CA,1702176521
539,palm beach,26.6503,-80.4498,25.0,81,55,2.56,US,1702176611
540,mili,6.0815,171.735,27.95,81,100,7.4,MH,1702176611
541,lodwar,3.1191,35.5973,27.47,48,69,5.42,KE,1702176611
542,viedma,-40.8135,-62.9967,15.94,37,0,1.87,AR,1702176611
543,tomatlan,19.9333,-105.25,22.9,74,17,1.57,MX,1702176611
544,quelimane,-17.8786,36.8883,25.97,94,0,3.13,MZ,1702176612
545,zakynthos,37.7914,20.8953,8.13,63,100,1.95,GR,1702176612
546,turpan,42.9333,89.1667,2.15,74,100,1.41,CN,1702176612
547,prince rupert,54.3161,-130.3201,7.83,87,100,15.43,CA,1702176612
548,otjimbingwe,-22.35,16.1333,20.74,44,9,2.14,NA,1702176612
549,selkirk,50.1436,-96.8845,-3.92,96,23,2.07,CA,1702176613
550,la sarre,48.8002,-79.1996,4.71,85,100,9.3,CA,1702176613
551,al bardiyah,31.7561,25.0865,16.11,54,100,4.15,LY,1702176613
552,broome,42.2506,-75.833,10.21,66,20,3.6,US,1702176316
553,cadale,2.7603,46.3222,26.41,80,23,6.85,SO,1702176613
554,great bend,38.3645,-98.7648,-0.22,46,0,5.14,US,1702176389
555,lewistown,40.5992,-77.5714,9.41,96,0,0.0,US,1702176613
556,eyl,7.9803,49.8164,24.11,78,15,6.76,SO,1702176349
557,mejit,10.2753,170.8646,27.37,81,40,8.72,MH,1702176333
558,mukalla,14.5425,49.1242,22.53,73,32,2.74,YE,1702176382
559,lower hutt,-41.2167,174.9167,13.8,86,100,10.29,NZ,1702176614
560,porto novo,6.4965,2.6036,26.02,86,3,1.32,BJ,1702176335
561,magadi,12.9667,77.2333,23.09,81,50,4.7,IN,1702176614
562,vitoria da conquista,-14.8661,-40.8394,17.7,96,21,2.06,BR,1702176614
563,port moresby,-9.4431,147.1797,32.68,55,40,5.14,PG,1702176614
564,wynyard,-41.0,145.7167,16.91,63,87,3.48,AU,1702176344
565,priargunsk,50.3691,119.1012,-31.58,94,28,0.36,RU,1702176614
566,koungheul,13.9833,-14.8,24.28,15,38,4.17,SN,1702176615
567,nuuk,64.1835,-51.7216,-0.66,80,100,2.06,GL,1702176120
568,treuenbrietzen,52.1,12.8667,2.7,96,100,4.24,DE,1702176615
569,amursk,50.2261,136.8994,-19.45,84,100,7.42,RU,1702176615
570,lokomotivnyy,53.0118,60.5684,-22.55,95,8,1.34,RU,1702176615
571,marquette,46.5333,-87.6335,1.57,97,100,4.02,US,1702176615
572,pijijiapan,15.7011,-93.23,25.39,74,84,1.28,MX,1702176615
573,umluj,25.0213,37.2685,24.48,65,45,3.1,SA,1702176616
574,usogorsk,63.4106,48.6872,-27.96,100,40,1.54,RU,1702176293
